header: 
  seq: 0
  stamp: 
    secs: 1674207936
    nsecs: 570776939
  frame_id: "camera_init"
child_frame_id: "body"
pose: 
  pose: 
    position: 
      x: -0.0012177994331566658
      y: 0.0007275345702857539
      z: -0.00012312346933032422
    orientation: 
      x: 0.00011525931966490524
      y: 1.720934726341535e-05
      z: -0.00026953109617996996
      w: 0.9999999568860569
  covariance: [0.0, 0.0, 0.0, 0.0, 0.0, 0.0, 0.0, 0.0, 0.0, 0.0, 0.0, 0.0, 0.0, 0.0, 0.0, 0.0, 0.0, 0.0, 0.0, 0.0, 0.0, 0.0, 0.0, 0.0, 0.0, 0.0, 0.0, 0.0, 0.0, 0.0, 0.0, 0.0, 0.0, 0.0, 0.0, 0.0]
twist: 
  twist: 
    linear: 
      x: 0.0
      y: 0.0
      z: 0.0
    angular: 
      x: 0.0
      y: 0.0
      z: 0.0
  covariance: [0.0, 0.0, 0.0, 0.0, 0.0, 0.0, 0.0, 0.0, 0.0, 0.0, 0.0, 0.0, 0.0, 0.0, 0.0, 0.0, 0.0, 0.0, 0.0, 0.0, 0.0, 0.0, 0.0, 0.0, 0.0, 0.0, 0.0, 0.0, 0.0, 0.0, 0.0, 0.0, 0.0, 0.0, 0.0, 0.0]
---
header: 
  seq: 1
  stamp: 
    secs: 1674207936
    nsecs: 671637535
  frame_id: "camera_init"
child_frame_id: "body"
pose: 
  pose: 
    position: 
      x: -0.0012748908070025259
      y: 0.002621941334830463
      z: -7.987654458351936e-05
    orientation: 
      x: 5.252806137762012e-05
      y: 0.00010587641999425953
      z: -0.0003951570312761244
      w: 0.99999991499499
  covariance: [8.51317713569357e-09, -1.182951209137489e-09, -5.33255173569431e-10, 1.8807635922374997e-09, 9.391398003381848e-09, -2.380770075349947e-08, -1.182951460830642e-09, 4.2930023675474165e-09, 5.739738567426418e-11, -2.7453508346042664e-09, 1.9375367338349409e-10, 3.623421748530055e-08, -5.332553992197057e-10, 5.7397449606340654e-11, 9.51164675706171e-09, -1.950087292509947e-08, -2.2203265973405537e-08, 2.5027540216597375e-09, 1.880763248309075e-09, -2.745324438361851e-09, -1.9500869698078486e-08, 2.050590999418826e-06, 2.402832105439273e-08, -8.625416969419802e-08, 9.39141627784079e-09, 1.9372299285007945e-10, -2.220326039152135e-08, 2.4028319399004304e-08, 2.0510144317799537e-06, 7.118155856495215e-08, -2.3807705941256752e-08, 3.623420841654004e-08, 2.5027547234714324e-09, -8.625416852948162e-08, 7.11815574868336e-08, 1.615817431358122e-06]
twist: 
  twist: 
    linear: 
      x: 0.0
      y: 0.0
      z: 0.0
    angular: 
      x: 0.0
      y: 0.0
      z: 0.0
  covariance: [0.0, 0.0, 0.0, 0.0, 0.0, 0.0, 0.0, 0.0, 0.0, 0.0, 0.0, 0.0, 0.0, 0.0, 0.0, 0.0, 0.0, 0.0, 0.0, 0.0, 0.0, 0.0, 0.0, 0.0, 0.0, 0.0, 0.0, 0.0, 0.0, 0.0, 0.0, 0.0, 0.0, 0.0, 0.0, 0.0]
---
header: 
  seq: 2
  stamp: 
    secs: 1674207936
    nsecs: 772551060
  frame_id: "camera_init"
child_frame_id: "body"
pose: 
  pose: 
    position: 
      x: -0.00037027834021776816
      y: -0.00040104481121763216
      z: -0.0019351532690835066
    orientation: 
      x: 3.401157745185146e-05
      y: -5.634772999416535e-05
      z: -0.00022754436551534113
      w: 0.9999999719458534
  covariance: [4.602030503369236e-09, -3.648140266397587e-10, -3.9350460289326256e-10, 2.316754347454959e-09, 7.671620063496232e-09, -6.004011659151518e-09, -3.648140266431655e-10, 2.4372953012485204e-09, -2.318925576417329e-11, -3.6596780851292953e-09, 4.204874712034012e-11, 1.8416261611978947e-08, -3.935046029042818e-10, -2.3189255765947184e-11, 6.308572642910064e-09, -1.370870536903765e-08, -1.7589521118751624e-08, -2.8128877517630025e-10, 2.3167543477100725e-09, -3.6596780852139837e-09, -1.3708705369740831e-08, 1.8095434017935428e-06, 2.207262859118293e-08, -8.143242235678181e-08, 7.671620063504476e-09, 4.204874714604971e-11, -1.7589521118641993e-08, 2.2072628588324044e-08, 1.6656886360776812e-06, 2.6027128098052934e-08, -6.004011659290179e-09, 1.8416261612344058e-08, -2.812887752451074e-10, -8.143242235731523e-08, 2.6027128097945186e-08, 1.1164659907080769e-06]
twist: 
  twist: 
    linear: 
      x: 0.0
      y: 0.0
      z: 0.0
    angular: 
      x: 0.0
      y: 0.0
      z: 0.0
  covariance: [0.0, 0.0, 0.0, 0.0, 0.0, 0.0, 0.0, 0.0, 0.0, 0.0, 0.0, 0.0, 0.0, 0.0, 0.0, 0.0, 0.0, 0.0, 0.0, 0.0, 0.0, 0.0, 0.0, 0.0, 0.0, 0.0, 0.0, 0.0, 0.0, 0.0, 0.0, 0.0, 0.0, 0.0, 0.0, 0.0]
---
header: 
  seq: 3
  stamp: 
    secs: 1674207936
    nsecs: 873385429
  frame_id: "camera_init"
child_frame_id: "body"
pose: 
  pose: 
    position: 
      x: -0.0014160909269133413
      y: -0.0018164614566224529
      z: -0.0012150812224295917
    orientation: 
      x: 1.480500298680929e-05
      y: -4.7180047943754366e-05
      z: -0.00022501758760365285
      w: 0.9999999734609697
  covariance: [3.811235939692278e-09, -2.532007095422876e-10, -1.9770515099190126e-10, 7.430318247352946e-10, 6.64007999028232e-09, -3.1744273525931646e-09, -2.532007095346408e-10, 2.0354103765475158e-09, -2.8622294202938097e-12, -2.8628981538510712e-09, 3.8501273436222946e-10, 1.471200328582752e-08, -1.9770515099604937e-10, -2.8622294165481097e-12, 5.2946682476497124e-09, -1.1849418649581428e-08, -1.2470342590111478e-08, -1.1832711316306863e-10, 7.430318272952709e-10, -2.862898154885636e-09, -1.1849418644489436e-08, 1.4375929552649985e-06, 1.8923593833805847e-08, -6.999875410611652e-08, 6.640079989963916e-09, 3.850127356639811e-10, -1.2470342592673595e-08, 1.8923593814363668e-08, 1.2577524128986063e-06, 2.8550256300378807e-08, -3.1744273530083473e-09, 1.4712003287450174e-08, -1.1832711356161485e-10, -6.999875408069921e-08, 2.8550256279191006e-08, 8.575436086491951e-07]
twist: 
  twist: 
    linear: 
      x: 0.0
      y: 0.0
      z: 0.0
    angular: 
      x: 0.0
      y: 0.0
      z: 0.0
  covariance: [0.0, 0.0, 0.0, 0.0, 0.0, 0.0, 0.0, 0.0, 0.0, 0.0, 0.0, 0.0, 0.0, 0.0, 0.0, 0.0, 0.0, 0.0, 0.0, 0.0, 0.0, 0.0, 0.0, 0.0, 0.0, 0.0, 0.0, 0.0, 0.0, 0.0, 0.0, 0.0, 0.0, 0.0, 0.0, 0.0]
---
header: 
  seq: 4
  stamp: 
    secs: 1674207936
    nsecs: 974260330
  frame_id: "camera_init"
child_frame_id: "body"
pose: 
  pose: 
    position: 
      x: 0.004681529859154912
      y: -0.0026403967156924204
      z: 0.00027444973440938884
    orientation: 
      x: -5.725878554002281e-05
      y: 2.9778582573167447e-05
      z: -0.00015831135596169643
      w: 0.9999999853860909
  covariance: [3.0782650421177513e-09, -2.056608260742688e-10, -1.0277051987560649e-10, 9.821452839328007e-10, 4.89353291475007e-09, -1.7344612791640504e-09, -2.0566082605867434e-10, 1.6787010274423028e-09, -4.298485643700454e-11, -2.812058365468253e-09, -7.652213206736136e-11, 1.0574847433953712e-08, -1.0277051987765134e-10, -4.2984856436688725e-11, 5.326299633053873e-09, -9.059586206104924e-09, -1.1489242226948609e-08, -6.886834532979476e-11, 9.821452841142605e-10, -2.8120583658866904e-09, -9.059586206700155e-09, 1.2806968616918764e-06, 4.428884941580081e-08, -5.478938410462023e-08, 4.893532914593576e-09, -7.652213195867624e-11, -1.1489242229783332e-08, 4.4288849398684275e-08, 1.1829315986740868e-06, 2.739084385886389e-08, -1.7344612790628481e-09, 1.0574847435872144e-08, -6.886834520866033e-11, -5.478938408761918e-08, 2.7390843843962178e-08, 7.169016192090806e-07]
twist: 
  twist: 
    linear: 
      x: 0.0
      y: 0.0
      z: 0.0
    angular: 
      x: 0.0
      y: 0.0
      z: 0.0
  covariance: [0.0, 0.0, 0.0, 0.0, 0.0, 0.0, 0.0, 0.0, 0.0, 0.0, 0.0, 0.0, 0.0, 0.0, 0.0, 0.0, 0.0, 0.0, 0.0, 0.0, 0.0, 0.0, 0.0, 0.0, 0.0, 0.0, 0.0, 0.0, 0.0, 0.0, 0.0, 0.0, 0.0, 0.0, 0.0, 0.0]
---
header: 
  seq: 5
  stamp: 
    secs: 1674207937
    nsecs:  75089216
  frame_id: "camera_init"
child_frame_id: "body"
pose: 
  pose: 
    position: 
      x: 0.013729117524858852
      y: -0.0020132547226036045
      z: -0.0005877166630032245
    orientation: 
      x: 1.9974211804403855e-05
      y: -7.262236597861506e-05
      z: -0.0003801009717819488
      w: 0.9999999249251342
  covariance: [2.460889100834242e-09, -1.0643294373026976e-10, -7.214427728446857e-11, 6.685724146033261e-10, 4.57803841233015e-09, 1.1236162466547324e-09, -1.064329437255997e-10, 1.5655769552231597e-09, -2.7428524829738614e-11, -2.5220209955437124e-09, 2.9596764805015873e-10, 9.55958372829093e-09, -7.214427728593778e-11, -2.7428524833133492e-11, 6.142550692271731e-09, -7.521713342240986e-09, -1.1832010796718727e-08, -8.379957121951722e-10, 6.685724145447296e-10, -2.5220209956641267e-09, -7.521713342169964e-09, 1.2659559429376234e-06, -2.1825804021027216e-08, -4.8470827396881654e-08, 4.5780384122833545e-09, 2.959676484666786e-10, -1.1832010796867065e-08, -2.182580402579518e-08, 1.1620027235878812e-06, 3.5329447169151313e-08, 1.123616246645985e-09, 9.559583726508739e-09, -8.379957121831556e-10, -4.847082739371317e-08, 3.5329447166270885e-08, 6.353146046539796e-07]
twist: 
  twist: 
    linear: 
      x: 0.0
      y: 0.0
      z: 0.0
    angular: 
      x: 0.0
      y: 0.0
      z: 0.0
  covariance: [0.0, 0.0, 0.0, 0.0, 0.0, 0.0, 0.0, 0.0, 0.0, 0.0, 0.0, 0.0, 0.0, 0.0, 0.0, 0.0, 0.0, 0.0, 0.0, 0.0, 0.0, 0.0, 0.0, 0.0, 0.0, 0.0, 0.0, 0.0, 0.0, 0.0, 0.0, 0.0, 0.0, 0.0, 0.0, 0.0]
---
header: 
  seq: 6
  stamp: 
    secs: 1674207937
    nsecs: 176024675
  frame_id: "camera_init"
child_frame_id: "body"
pose: 
  pose: 
    position: 
      x: 0.022580431857884872
      y: -0.005942779019241241
      z: -0.0016931808252602907
    orientation: 
      x: 8.856232337809661e-06
      y: -3.423082539044922e-05
      z: -0.00017957801657796465
      w: 0.9999999832507768
  covariance: [2.173350239218632e-09, -1.238536140674519e-10, -5.2467267719712325e-11, 2.7536184314342915e-11, 4.377944883099095e-09, 1.6133393324976612e-09, -1.238536140655236e-10, 1.3234279600756763e-09, -1.0571572815948002e-11, -2.5369802793682736e-09, -8.760255203393311e-11, 8.427399117198433e-09, -5.246726771013072e-11, -1.057157281701127e-11, 5.89544859585957e-09, -8.629659665356769e-09, -1.1905671250753548e-08, 3.829607798752165e-10, 2.753618397413072e-11, -2.536980267832413e-09, -8.62965966548866e-09, 1.31367219997136e-06, 2.0904324005764377e-08, -4.840582707317674e-08, 4.377944876274064e-09, -8.760255280533413e-11, -1.1905671255860283e-08, 2.09043240055563e-08, 1.1748747697201112e-06, 2.111595299988334e-08, 1.613339332627063e-09, 8.42739912066313e-09, 3.82960779758813e-10, -4.840582707328912e-08, 2.1115952999930312e-08, 5.81493782003156e-07]
twist: 
  twist: 
    linear: 
      x: 0.0
      y: 0.0
      z: 0.0
    angular: 
      x: 0.0
      y: 0.0
      z: 0.0
  covariance: [0.0, 0.0, 0.0, 0.0, 0.0, 0.0, 0.0, 0.0, 0.0, 0.0, 0.0, 0.0, 0.0, 0.0, 0.0, 0.0, 0.0, 0.0, 0.0, 0.0, 0.0, 0.0, 0.0, 0.0, 0.0, 0.0, 0.0, 0.0, 0.0, 0.0, 0.0, 0.0, 0.0, 0.0, 0.0, 0.0]
---
header: 
  seq: 7
  stamp: 
    secs: 1674207937
    nsecs: 276823044
  frame_id: "camera_init"
child_frame_id: "body"
pose: 
  pose: 
    position: 
      x: 0.03560534053750023
      y: -0.005131166294280598
      z: -0.0021433400978795166
    orientation: 
      x: 2.2943862284206254e-05
      y: -1.460565329768956e-06
      z: -0.0005441732266729906
      w: 0.9999998516734616
  covariance: [2.0360783904075084e-09, -5.6098556507383307e-11, -9.903554863085899e-11, 8.351755520822991e-10, 4.8839753444101745e-09, 3.0818134173348254e-09, -5.609855646683748e-11, 1.235125623253488e-09, -3.996255033656249e-12, -2.565921331605622e-09, -4.6240327344491967e-10, 7.632002315996468e-09, -9.903554861570089e-11, -3.996255140782232e-12, 6.113185347441069e-09, -5.690788358742933e-09, -9.69643993571101e-09, 6.082589171188964e-11, 8.351755508740362e-10, -2.565921313579972e-09, -5.690788358691899e-09, 1.3116280786125965e-06, 1.453465429571077e-08, -3.709122312850633e-08, 4.8839753396961086e-09, -4.6240327517187126e-10, -9.696439937256705e-09, 1.4534654295441404e-08, 1.1776485707495784e-06, 1.790335402256253e-08, 3.08181341702183e-09, 7.632002310259249e-09, 6.082589173765006e-11, -3.7091223128247306e-08, 1.7903354022263416e-08, 5.458375463683936e-07]
twist: 
  twist: 
    linear: 
      x: 0.0
      y: 0.0
      z: 0.0
    angular: 
      x: 0.0
      y: 0.0
      z: 0.0
  covariance: [0.0, 0.0, 0.0, 0.0, 0.0, 0.0, 0.0, 0.0, 0.0, 0.0, 0.0, 0.0, 0.0, 0.0, 0.0, 0.0, 0.0, 0.0, 0.0, 0.0, 0.0, 0.0, 0.0, 0.0, 0.0, 0.0, 0.0, 0.0, 0.0, 0.0, 0.0, 0.0, 0.0, 0.0, 0.0, 0.0]
---
header: 
  seq: 8
  stamp: 
    secs: 1674207937
    nsecs: 377718210
  frame_id: "camera_init"
child_frame_id: "body"
pose: 
  pose: 
    position: 
      x: 0.06034662971677405
      y: -0.004825784574325942
      z: -0.003691891166455941
    orientation: 
      x: 5.911957757570393e-05
      y: -0.0001007619386163452
      z: -0.00044756820937832964
      w: 0.9999998930172969
  covariance: [1.975371805733795e-09, -1.214361892991302e-10, -7.294438127826491e-11, 4.0957933307047495e-10, 4.432915535501672e-09, 1.5526438787866708e-09, -1.214361893095127e-10, 1.2611550546211153e-09, 2.1768311914239602e-11, -2.668005331804312e-09, -3.918072099598415e-10, 8.313135166606634e-09, -7.294438136320217e-11, 2.1768311896813708e-11, 6.409652028452815e-09, -2.9718299301668154e-09, -1.0696611850557251e-08, 3.10908707886555e-10, 4.0957933319890684e-10, -2.6680053178569545e-09, -2.9718299301807687e-09, 1.3416706954051385e-06, -1.0572409336525052e-08, -4.6247699249664065e-08, 4.4329155393424985e-09, -3.9180721212826e-10, -1.069661184552571e-08, -1.0572409337194684e-08, 1.1763374268346342e-06, 1.307370746750075e-08, 1.552643878946028e-09, 8.313135167628169e-09, 3.109087079246412e-10, -4.6247699249154065e-08, 1.3073707467021088e-08, 5.470972576557649e-07]
twist: 
  twist: 
    linear: 
      x: 0.0
      y: 0.0
      z: 0.0
    angular: 
      x: 0.0
      y: 0.0
      z: 0.0
  covariance: [0.0, 0.0, 0.0, 0.0, 0.0, 0.0, 0.0, 0.0, 0.0, 0.0, 0.0, 0.0, 0.0, 0.0, 0.0, 0.0, 0.0, 0.0, 0.0, 0.0, 0.0, 0.0, 0.0, 0.0, 0.0, 0.0, 0.0, 0.0, 0.0, 0.0, 0.0, 0.0, 0.0, 0.0, 0.0, 0.0]
---
header: 
  seq: 9
  stamp: 
    secs: 1674207937
    nsecs: 478541851
  frame_id: "camera_init"
child_frame_id: "body"
pose: 
  pose: 
    position: 
      x: 0.09159536330856938
      y: -0.007669312776440168
      z: -0.0033211612639614503
    orientation: 
      x: -2.0908525213749936e-05
      y: -0.00011858796702171018
      z: -0.00034384404460159325
      w: 0.9999999336354981
  covariance: [1.8723508397443665e-09, -7.375911753246587e-11, -8.70071251726584e-11, 2.1295774102830182e-10, 4.292352166365955e-09, 1.948458096166171e-09, -7.375911753016782e-11, 1.2578311672082222e-09, -8.522331160543435e-12, -2.882435738736967e-09, -2.703384086828643e-10, 8.253046604812414e-09, -8.700712519337251e-11, -8.522331192266751e-12, 5.982786566347506e-09, -5.08739654521678e-09, -1.0114317091597715e-08, 3.8309221686183333e-10, 2.129577400486459e-10, -2.8824357383368743e-09, -5.08739654516719e-09, 1.4023095948325315e-06, -4.4427100219116693e-08, -5.091025709130804e-08, 4.292352170410091e-09, -2.7033840956383053e-10, -1.011431709291603e-08, -4.4427100219784804e-08, 1.2018007393917476e-06, 1.7047554347523167e-08, 1.9484580959271164e-09, 8.253046604929222e-09, 3.8309221679040365e-10, -5.091025709085057e-08, 1.704755434714191e-08, 5.350577598448577e-07]
twist: 
  twist: 
    linear: 
      x: 0.0
      y: 0.0
      z: 0.0
    angular: 
      x: 0.0
      y: 0.0
      z: 0.0
  covariance: [0.0, 0.0, 0.0, 0.0, 0.0, 0.0, 0.0, 0.0, 0.0, 0.0, 0.0, 0.0, 0.0, 0.0, 0.0, 0.0, 0.0, 0.0, 0.0, 0.0, 0.0, 0.0, 0.0, 0.0, 0.0, 0.0, 0.0, 0.0, 0.0, 0.0, 0.0, 0.0, 0.0, 0.0, 0.0, 0.0]
---
header: 
  seq: 10
  stamp: 
    secs: 1674207937
    nsecs: 579417229
  frame_id: "camera_init"
child_frame_id: "body"
pose: 
  pose: 
    position: 
      x: 0.13062379026485377
      y: -0.0055943249665111015
      z: -0.0040574551342278655
    orientation: 
      x: -3.244773326971874e-05
      y: -0.0001693601877776179
      z: -0.0007957967766998751
      w: 0.9999996684858259
  covariance: [1.7605357869273111e-09, -1.169308139985388e-10, -7.218842827966305e-11, 9.037114467557859e-11, 4.540834314539096e-09, 1.6139123144244628e-09, -1.1693081400130903e-10, 1.2280631942572682e-09, 1.0707500739753476e-11, -2.7846573021783013e-09, -1.241502062916795e-10, 7.214309258093736e-09, -7.218842826942142e-11, 1.0707500721959155e-11, 5.464316596810273e-09, -3.864658270174658e-09, -1.0058368520450596e-08, 5.292477057575774e-11, 9.037114314506635e-11, -2.784657293750442e-09, -3.864658270151087e-09, 1.392836690512827e-06, -1.8157346808370502e-08, -4.209967923409073e-08, 4.540834316422795e-09, -1.2415020664424342e-10, -1.0058368521599985e-08, -1.815734680887971e-08, 1.238977830379067e-06, 1.7797846948814976e-08, 1.6139123145090928e-09, 7.214309259215664e-09, 5.292477057666768e-11, -4.2099679233774383e-08, 1.779784694856472e-08, 5.012216782051668e-07]
twist: 
  twist: 
    linear: 
      x: 0.0
      y: 0.0
      z: 0.0
    angular: 
      x: 0.0
      y: 0.0
      z: 0.0
  covariance: [0.0, 0.0, 0.0, 0.0, 0.0, 0.0, 0.0, 0.0, 0.0, 0.0, 0.0, 0.0, 0.0, 0.0, 0.0, 0.0, 0.0, 0.0, 0.0, 0.0, 0.0, 0.0, 0.0, 0.0, 0.0, 0.0, 0.0, 0.0, 0.0, 0.0, 0.0, 0.0, 0.0, 0.0, 0.0, 0.0]
---
header: 
  seq: 11
  stamp: 
    secs: 1674207937
    nsecs: 680232286
  frame_id: "camera_init"
child_frame_id: "body"
pose: 
  pose: 
    position: 
      x: 0.18346013861834642
      y: -0.006161194320370328
      z: -0.007245461380989547
    orientation: 
      x: -6.0867168750770856e-05
      y: -0.0002536875330764054
      z: -0.0009315786971816711
      w: 0.9999995320493676
  covariance: [1.5399523011986763e-09, -9.740522059508005e-11, -1.0362598196835825e-10, -9.377483120897923e-11, 3.9552474393227915e-09, 1.867095792286647e-09, -9.740522058890535e-11, 1.049356323645738e-09, -4.459707108830882e-12, -3.1064148120431323e-09, -1.981909663743521e-10, 5.659558276735456e-09, -1.0362598188290151e-10, -4.459707121994292e-12, 6.261085437786401e-09, -3.9732855786949735e-09, -8.46013070255708e-09, 4.6242924881424015e-10, -9.377482985539369e-11, -3.1064147756390898e-09, -3.973285578601521e-09, 1.433216885423242e-06, 1.4067980830208457e-08, -4.6277380244415076e-08, 3.955247425896029e-09, -1.9819097451634911e-10, -8.4601307025829e-09, 1.4067980829762621e-08, 1.259951341989588e-06, 1.7721812600262227e-08, 1.867095792149036e-09, 5.6595582815562295e-09, 4.6242924882980423e-10, -4.627738024411829e-08, 1.7721812600089846e-08, 4.5571838204603737e-07]
twist: 
  twist: 
    linear: 
      x: 0.0
      y: 0.0
      z: 0.0
    angular: 
      x: 0.0
      y: 0.0
      z: 0.0
  covariance: [0.0, 0.0, 0.0, 0.0, 0.0, 0.0, 0.0, 0.0, 0.0, 0.0, 0.0, 0.0, 0.0, 0.0, 0.0, 0.0, 0.0, 0.0, 0.0, 0.0, 0.0, 0.0, 0.0, 0.0, 0.0, 0.0, 0.0, 0.0, 0.0, 0.0, 0.0, 0.0, 0.0, 0.0, 0.0, 0.0]
---
header: 
  seq: 12
  stamp: 
    secs: 1674207937
    nsecs: 781137943
  frame_id: "camera_init"
child_frame_id: "body"
pose: 
  pose: 
    position: 
      x: 0.23812460485077305
      y: -0.009318871207743813
      z: -0.012018938543399568
    orientation: 
      x: -7.1524536035727e-05
      y: -0.00015806469359683017
      z: -0.0011219231016675378
      w: 0.999999355593966
  covariance: [1.5177050690897505e-09, -1.120439168071406e-10, -8.952682435937887e-11, 1.856783493621863e-11, 4.6834283349713175e-09, 1.6731312172388203e-09, -1.120439168063758e-10, 1.0048979356411499e-09, 2.868668301277561e-11, -3.1765445715694786e-09, -3.8166795607055713e-10, 5.8861392581350155e-09, -8.952682432765519e-11, 2.8686682996628054e-11, 6.188532467775711e-09, -4.348002603677183e-09, -1.0363094462584454e-08, 6.554765931497297e-10, 1.8567834698066657e-11, -3.176544571812468e-09, -4.348002603721097e-09, 1.4277929580259541e-06, -2.0701147624622783e-08, -4.3771165482953826e-08, 4.683428328669838e-09, -3.8166795488900335e-10, -1.0363094463477205e-08, -2.0701147624942134e-08, 1.3156754952001665e-06, 1.4763891737712972e-08, 1.6731312169938487e-09, 5.886139257945915e-09, 6.554765932511172e-10, -4.377116548274179e-08, 1.4763891737563212e-08, 4.4419464058462453e-07]
twist: 
  twist: 
    linear: 
      x: 0.0
      y: 0.0
      z: 0.0
    angular: 
      x: 0.0
      y: 0.0
      z: 0.0
  covariance: [0.0, 0.0, 0.0, 0.0, 0.0, 0.0, 0.0, 0.0, 0.0, 0.0, 0.0, 0.0, 0.0, 0.0, 0.0, 0.0, 0.0, 0.0, 0.0, 0.0, 0.0, 0.0, 0.0, 0.0, 0.0, 0.0, 0.0, 0.0, 0.0, 0.0, 0.0, 0.0, 0.0, 0.0, 0.0, 0.0]
---
header: 
  seq: 13
  stamp: 
    secs: 1674207937
    nsecs: 881987333
  frame_id: "camera_init"
child_frame_id: "body"
pose: 
  pose: 
    position: 
      x: 0.2928704125325492
      y: -0.010446181834179454
      z: -0.016593123454660443
    orientation: 
      x: -8.426269812353839e-05
      y: -0.0002813677975144161
      z: -0.0008997123359880459
      w: 0.999999552124736
  covariance: [1.4840866846127786e-09, -7.635294450190499e-11, -7.593243052129453e-11, -2.755292691744972e-11, 4.3783129046039815e-09, 2.32036384586038e-09, -7.635294448173773e-11, 9.42672709961811e-10, 4.712585166313039e-11, -3.211106319941402e-09, -2.641831200689927e-10, 4.9127064513165256e-09, -7.59324305290098e-11, 4.7125851662162655e-11, 5.60730250917401e-09, -3.702142922624789e-09, -7.090643049493864e-09, 5.324402301190767e-10, -2.7552924220368954e-11, -3.211106305824077e-09, -3.70214292280539e-09, 1.4196703517839909e-06, -1.7742346590157066e-08, -4.972640798096627e-08, 4.378312896199524e-09, -2.6418312379725393e-10, -7.090643049696906e-09, -1.7742346590388895e-08, 1.2809803168090235e-06, 1.778687546376145e-08, 2.3203638457010626e-09, 4.912706448421966e-09, 5.32440230122087e-10, -4.972640798085521e-08, 1.7786875463640364e-08, 4.29707615909703e-07]
twist: 
  twist: 
    linear: 
      x: 0.0
      y: 0.0
      z: 0.0
    angular: 
      x: 0.0
      y: 0.0
      z: 0.0
  covariance: [0.0, 0.0, 0.0, 0.0, 0.0, 0.0, 0.0, 0.0, 0.0, 0.0, 0.0, 0.0, 0.0, 0.0, 0.0, 0.0, 0.0, 0.0, 0.0, 0.0, 0.0, 0.0, 0.0, 0.0, 0.0, 0.0, 0.0, 0.0, 0.0, 0.0, 0.0, 0.0, 0.0, 0.0, 0.0, 0.0]
---
header: 
  seq: 14
  stamp: 
    secs: 1674207937
    nsecs: 982868910
  frame_id: "camera_init"
child_frame_id: "body"
pose: 
  pose: 
    position: 
      x: 0.34713370073658084
      y: -0.005867433743780003
      z: -0.019501956790865013
    orientation: 
      x: -8.134325924718222e-05
      y: -0.0003032834070560909
      z: -0.0010058853701946748
      w: 0.9999994447983814
  covariance: [1.4325604382534048e-09, -1.3470656026185382e-10, -8.332952883542786e-11, -8.3860968864723e-11, 4.877148356959451e-09, 1.8843239549021775e-09, -1.347065602651227e-10, 9.295520315588777e-10, 5.3295082109422434e-11, -2.8302072760888892e-09, -2.551653820958927e-10, 5.173648154330511e-09, -8.332952884544507e-11, 5.329508205334217e-11, 5.719355407382352e-09, -6.817229932738932e-09, -6.9151244687764765e-09, 6.331209720040015e-10, -8.386096882907705e-11, -2.83020727667114e-09, -6.817229932683767e-09, 1.4471804911851624e-06, -1.7449621198923943e-08, -5.967313067748889e-08, 4.877148359860298e-09, -2.5516537833672084e-10, -6.91512446883621e-09, -1.744962119908828e-08, 1.3096777709233044e-06, 2.8288158410825854e-08, 1.8843239550657926e-09, 5.173648152688712e-09, 6.331209719953474e-10, -5.967313067738971e-08, 2.828815841070158e-08, 4.3134384428507356e-07]
twist: 
  twist: 
    linear: 
      x: 0.0
      y: 0.0
      z: 0.0
    angular: 
      x: 0.0
      y: 0.0
      z: 0.0
  covariance: [0.0, 0.0, 0.0, 0.0, 0.0, 0.0, 0.0, 0.0, 0.0, 0.0, 0.0, 0.0, 0.0, 0.0, 0.0, 0.0, 0.0, 0.0, 0.0, 0.0, 0.0, 0.0, 0.0, 0.0, 0.0, 0.0, 0.0, 0.0, 0.0, 0.0, 0.0, 0.0, 0.0, 0.0, 0.0, 0.0]
---
header: 
  seq: 15
  stamp: 
    secs: 1674207938
    nsecs:  83711147
  frame_id: "camera_init"
child_frame_id: "body"
pose: 
  pose: 
    position: 
      x: 0.40695341165880067
      y: -0.007392431480056295
      z: -0.02441303594448582
    orientation: 
      x: -0.00015171230778035353
      y: -0.0003786865316947236
      z: -0.0011684849435850315
      w: 0.9999992341111182
  covariance: [1.436506871366158e-09, -8.87827693270963e-11, -2.1712031104215682e-11, -3.3705343211034145e-10, 4.842752272820429e-09, 2.1149155419335053e-09, -8.878276930894248e-11, 9.304852640250811e-10, -6.217501890754888e-12, -3.5227556527966784e-09, -8.095798538692428e-12, 4.320260261156634e-09, -2.1712031148557523e-11, -6.21750183744865e-12, 5.597887185540954e-09, -3.674390794463024e-09, -9.079456972976673e-09, 3.2511892526695474e-10, -3.3705343183859174e-10, -3.522755648712589e-09, -3.674390794515848e-09, 1.4095171290727902e-06, -5.013373435533991e-08, -5.4668088666078544e-08, 4.842752279380049e-09, -8.095808150634234e-12, -9.079456971306337e-09, -5.013373435560735e-08, 1.371943639108153e-06, 2.6330813962844446e-08, 2.114915542397975e-09, 4.320260262707883e-09, 3.251189253286891e-10, -5.4668088665949405e-08, 2.6330813962723238e-08, 4.313468862850625e-07]
twist: 
  twist: 
    linear: 
      x: 0.0
      y: 0.0
      z: 0.0
    angular: 
      x: 0.0
      y: 0.0
      z: 0.0
  covariance: [0.0, 0.0, 0.0, 0.0, 0.0, 0.0, 0.0, 0.0, 0.0, 0.0, 0.0, 0.0, 0.0, 0.0, 0.0, 0.0, 0.0, 0.0, 0.0, 0.0, 0.0, 0.0, 0.0, 0.0, 0.0, 0.0, 0.0, 0.0, 0.0, 0.0, 0.0, 0.0, 0.0, 0.0, 0.0, 0.0]
---
header: 
  seq: 16
  stamp: 
    secs: 1674207938
    nsecs: 184577465
  frame_id: "camera_init"
child_frame_id: "body"
pose: 
  pose: 
    position: 
      x: 0.47451914896147784
      y: -0.005814197049395723
      z: -0.028444696584635845
    orientation: 
      x: -0.00017636627297504124
      y: -0.00043652418784083944
      z: -0.0015866567169718021
      w: 0.999998630430079
  covariance: [1.4962737017863424e-09, -7.231519126387343e-11, -3.2271683534581385e-11, -1.672447864828789e-10, 4.359547275079047e-09, 2.9776531307076816e-09, -7.23151912987404e-11, 9.869398096223402e-10, -5.610652496841274e-12, -2.888578176493963e-09, -2.025396837556438e-10, 5.004486285341185e-09, -3.227168357213595e-11, -5.610652590259509e-12, 5.564448704192474e-09, -5.329556920529135e-09, -7.823668595313889e-09, 3.6194650283191155e-10, -1.6724478430646202e-10, -2.888578145950021e-09, -5.3295569203416896e-09, 1.4085099615572121e-06, -5.611734107367831e-08, -6.58508198051585e-08, 4.359547273467629e-09, -2.025396839718005e-10, -7.823668595291186e-09, -5.6117341073930966e-08, 1.3225079597902686e-06, 2.4428112159266127e-08, 2.9776531302748415e-09, 5.004486288098053e-09, 3.61946502829984e-10, -6.585081980504277e-08, 2.4428112159159577e-08, 4.4646175802988836e-07]
twist: 
  twist: 
    linear: 
      x: 0.0
      y: 0.0
      z: 0.0
    angular: 
      x: 0.0
      y: 0.0
      z: 0.0
  covariance: [0.0, 0.0, 0.0, 0.0, 0.0, 0.0, 0.0, 0.0, 0.0, 0.0, 0.0, 0.0, 0.0, 0.0, 0.0, 0.0, 0.0, 0.0, 0.0, 0.0, 0.0, 0.0, 0.0, 0.0, 0.0, 0.0, 0.0, 0.0, 0.0, 0.0, 0.0, 0.0, 0.0, 0.0, 0.0, 0.0]
---
header: 
  seq: 17
  stamp: 
    secs: 1674207938
    nsecs: 285439253
  frame_id: "camera_init"
child_frame_id: "body"
pose: 
  pose: 
    position: 
      x: 0.5458612007569564
      y: -0.014354434323893944
      z: -0.03375148859486726
    orientation: 
      x: -0.00026731090095964
      y: -0.0005116304898110573
      z: -0.0018923490819450779
      w: 0.999998042895123
  covariance: [1.4441598245093502e-09, -6.100825472937814e-11, -7.114839914391802e-11, -5.994611097227966e-10, 4.902197664783383e-09, 2.588196643596526e-09, -6.100825475339573e-11, 9.46014084692008e-10, 3.681243988563005e-11, -3.326146685781584e-09, -2.9566532990814304e-10, 4.681082933785368e-09, -7.114839915371483e-11, 3.6812439830295186e-11, 5.418791788510661e-09, -7.578156296964782e-09, -3.598237057263102e-09, 1.2775845832011637e-09, -5.994611088375113e-10, -3.3261466820922696e-09, -7.578156297129004e-09, 1.4558455306497692e-06, -9.439777147352535e-08, -7.335153014047545e-08, 4.902197658615444e-09, -2.956653230295591e-10, -3.5982370571859004e-09, -9.439777147356842e-08, 1.302482636844554e-06, 2.271739662134417e-08, 2.5881966435555074e-09, 4.6810829338008736e-09, 1.2775845832239548e-09, -7.335153014039021e-08, 2.2717396621245613e-08, 4.3547182211686213e-07]
twist: 
  twist: 
    linear: 
      x: 0.0
      y: 0.0
      z: 0.0
    angular: 
      x: 0.0
      y: 0.0
      z: 0.0
  covariance: [0.0, 0.0, 0.0, 0.0, 0.0, 0.0, 0.0, 0.0, 0.0, 0.0, 0.0, 0.0, 0.0, 0.0, 0.0, 0.0, 0.0, 0.0, 0.0, 0.0, 0.0, 0.0, 0.0, 0.0, 0.0, 0.0, 0.0, 0.0, 0.0, 0.0, 0.0, 0.0, 0.0, 0.0, 0.0, 0.0]
---
header: 
  seq: 18
  stamp: 
    secs: 1674207938
    nsecs: 386298656
  frame_id: "camera_init"
child_frame_id: "body"
pose: 
  pose: 
    position: 
      x: 0.609040139882381
      y: -0.01910098816288379
      z: -0.03723132735269517
    orientation: 
      x: -0.00033592838248977795
      y: -0.0005427933510134198
      z: -0.002241224176557093
      w: 0.9999972847171588
  covariance: [1.4777333532957364e-09, -1.1776086491940044e-10, -5.5631832837765155e-11, -2.9525879482479625e-10, 4.689134898513151e-09, 2.0216750179135843e-09, -1.1776086490462684e-10, 9.99211555085698e-10, -5.550504867915913e-13, -3.1625429302196733e-09, -3.018033986850729e-10, 5.172552437407035e-09, -5.5631832801860514e-11, -5.550504944330528e-13, 4.997189154931454e-09, -2.7988064332025445e-09, -8.369873874361045e-09, 5.126731007345062e-10, -2.952587941778568e-10, -3.162542931327237e-09, -2.7988064329804655e-09, 1.4136271923618737e-06, -6.499450822085472e-08, -6.714128548778398e-08, 4.6891348993961e-09, -3.018033965248689e-10, -8.369873879921929e-09, -6.49945082208397e-08, 1.3135120677420564e-06, 1.975968950666766e-08, 2.0216750178024137e-09, 5.172552434242106e-09, 5.126731006466086e-10, -6.714128548773566e-08, 1.9759689506577087e-08, 4.526877688346544e-07]
twist: 
  twist: 
    linear: 
      x: 0.0
      y: 0.0
      z: 0.0
    angular: 
      x: 0.0
      y: 0.0
      z: 0.0
  covariance: [0.0, 0.0, 0.0, 0.0, 0.0, 0.0, 0.0, 0.0, 0.0, 0.0, 0.0, 0.0, 0.0, 0.0, 0.0, 0.0, 0.0, 0.0, 0.0, 0.0, 0.0, 0.0, 0.0, 0.0, 0.0, 0.0, 0.0, 0.0, 0.0, 0.0, 0.0, 0.0, 0.0, 0.0, 0.0, 0.0]
---
header: 
  seq: 19
  stamp: 
    secs: 1674207938
    nsecs: 487169266
  frame_id: "camera_init"
child_frame_id: "body"
pose: 
  pose: 
    position: 
      x: 0.6906424186318232
      y: -0.0261957938592807
      z: -0.03787423868961767
    orientation: 
      x: -0.0004278028233648523
      y: -0.000750717313211262
      z: -0.0027664243703990434
      w: 0.999995800143412
  covariance: [1.4831943713522115e-09, -6.54500374881722e-11, -5.2008802781824816e-11, -9.50371560717347e-10, 4.873244210752484e-09, 1.7590910581013597e-09, -6.545003744631885e-11, 9.727644378374273e-10, 2.4783862552696585e-11, -3.245940853592781e-09, -1.1370581261239496e-10, 3.7463759673924575e-09, -5.200880276276223e-11, 2.478386260470879e-11, 5.376136378711755e-09, -4.2915285382550965e-09, -8.820331413955907e-09, 1.071498776049779e-09, -9.503715607453243e-10, -3.245940870116952e-09, -4.2915285381291376e-09, 1.4225495286988526e-06, -2.7110796943820515e-08, -7.320807816884439e-08, 4.873244210948433e-09, -1.1370581799726817e-10, -8.820331415050332e-09, -2.7110796943969788e-08, 1.289399201023013e-06, 9.251062064954528e-09, 1.7590910579502712e-09, 3.746375962726353e-09, 1.0714987760506777e-09, -7.320807816884016e-08, 9.251062064885617e-09, 4.452619400960644e-07]
twist: 
  twist: 
    linear: 
      x: 0.0
      y: 0.0
      z: 0.0
    angular: 
      x: 0.0
      y: 0.0
      z: 0.0
  covariance: [0.0, 0.0, 0.0, 0.0, 0.0, 0.0, 0.0, 0.0, 0.0, 0.0, 0.0, 0.0, 0.0, 0.0, 0.0, 0.0, 0.0, 0.0, 0.0, 0.0, 0.0, 0.0, 0.0, 0.0, 0.0, 0.0, 0.0, 0.0, 0.0, 0.0, 0.0, 0.0, 0.0, 0.0, 0.0, 0.0]
---
header: 
  seq: 20
  stamp: 
    secs: 1674207938
    nsecs: 588060141
  frame_id: "camera_init"
child_frame_id: "body"
pose: 
  pose: 
    position: 
      x: 0.7774113558837987
      y: -0.034391826531138064
      z: -0.03958828540887613
    orientation: 
      x: -0.0005002090635994765
      y: -0.0008503840389348137
      z: -0.003018985516481224
      w: 0.999994956169445
  covariance: [1.439812765256484e-09, -2.8519737007054185e-11, -8.232480678310719e-11, -8.216989041032725e-10, 4.253726021192197e-09, 1.7250869066471501e-09, -2.851973701279717e-11, 1.058707043672677e-09, 3.429450639051514e-11, -3.815042004953065e-09, -2.0229611796672078e-10, 3.817128143517812e-09, -8.23248067516074e-11, 3.429450642080148e-11, 5.1304304310089905e-09, -2.4432682373842105e-09, -1.0701306267461859e-08, 1.1756225386421608e-09, -8.216989040089924e-10, -3.815042011656256e-09, -2.443268237223457e-09, 1.4242775064820958e-06, -4.404947910110949e-08, -5.896465450306406e-08, 4.253726020775043e-09, -2.0229612260930402e-10, -1.0701306271211403e-08, -4.404947910134482e-08, 1.2898639692698742e-06, 4.968735609890498e-09, 1.7250869066713758e-09, 3.817128143818604e-09, 1.175622538710927e-09, -5.896465450300908e-08, 4.9687356098205966e-09, 4.5932287012042664e-07]
twist: 
  twist: 
    linear: 
      x: 0.0
      y: 0.0
      z: 0.0
    angular: 
      x: 0.0
      y: 0.0
      z: 0.0
  covariance: [0.0, 0.0, 0.0, 0.0, 0.0, 0.0, 0.0, 0.0, 0.0, 0.0, 0.0, 0.0, 0.0, 0.0, 0.0, 0.0, 0.0, 0.0, 0.0, 0.0, 0.0, 0.0, 0.0, 0.0, 0.0, 0.0, 0.0, 0.0, 0.0, 0.0, 0.0, 0.0, 0.0, 0.0, 0.0, 0.0]
---
header: 
  seq: 21
  stamp: 
    secs: 1674207938
    nsecs: 688846350
  frame_id: "camera_init"
child_frame_id: "body"
pose: 
  pose: 
    position: 
      x: 0.8697172938728359
      y: -0.042902111171240986
      z: -0.042811186862131624
    orientation: 
      x: -0.0004474787206908787
      y: -0.0009997886001124957
      z: -0.0035518347161555513
      w: 0.9999930923039912
  covariance: [1.4425812643851862e-09, -8.495127498959227e-11, -8.729240305316542e-11, -7.217919431964973e-10, 4.024716553777994e-09, 1.892116533577791e-09, -8.495127497475732e-11, 1.1021439334132481e-09, 6.344309409802949e-11, -3.99702646971696e-09, 8.103928348026236e-11, 3.646156789315555e-09, -8.72924029969944e-11, 6.34430940844584e-11, 5.3480972034613634e-09, -5.255677602877496e-09, -1.1447369168123219e-08, 6.713302826666114e-10, -7.217919430037015e-10, -3.9970264769418056e-09, -5.255677602982936e-09, 1.4710368515818817e-06, -4.657546036078478e-08, -5.191700411741187e-08, 4.0247165482605495e-09, 8.103927990637745e-11, -1.1447369168646305e-08, -4.657546036099886e-08, 1.274109642299318e-06, 1.2862867753877177e-08, 1.892116533597076e-09, 3.646156788610689e-09, 6.713302826748848e-10, -5.191700411733714e-08, 1.2862867753806277e-08, 4.5503427095476436e-07]
twist: 
  twist: 
    linear: 
      x: 0.0
      y: 0.0
      z: 0.0
    angular: 
      x: 0.0
      y: 0.0
      z: 0.0
  covariance: [0.0, 0.0, 0.0, 0.0, 0.0, 0.0, 0.0, 0.0, 0.0, 0.0, 0.0, 0.0, 0.0, 0.0, 0.0, 0.0, 0.0, 0.0, 0.0, 0.0, 0.0, 0.0, 0.0, 0.0, 0.0, 0.0, 0.0, 0.0, 0.0, 0.0, 0.0, 0.0, 0.0, 0.0, 0.0, 0.0]
---
header: 
  seq: 22
  stamp: 
    secs: 1674207938
    nsecs: 789774895
  frame_id: "camera_init"
child_frame_id: "body"
pose: 
  pose: 
    position: 
      x: 0.9648301888015162
      y: -0.05653672197563831
      z: -0.047804716123377756
    orientation: 
      x: -0.00047063734768327365
      y: -0.0011500199480046244
      z: -0.0038055953158576614
      w: 0.9999919866673423
  covariance: [1.4313558286830848e-09, -6.377448394842704e-11, -8.327688931577708e-11, -4.1459363180979394e-10, 4.449578935917539e-09, 2.291045661639908e-09, -6.377448395068435e-11, 1.0969975937695002e-09, 8.57331641558451e-11, -4.067681550825663e-09, -7.097883106939187e-11, 3.91058273283395e-09, -8.327688933602697e-11, 8.573316415568925e-11, 5.0308814960938744e-09, -2.4922710261837306e-09, -1.2094741013889048e-08, 3.7092321111608376e-10, -4.145936329014445e-10, -4.067681568741847e-09, -2.492271026020071e-09, 1.4709233606794375e-06, -6.105825914636908e-08, -5.723813601784273e-08, 4.4495789306634165e-09, -7.097882832894869e-11, -1.2094741013650075e-08, -6.105825914648236e-08, 1.2701742419787753e-06, 1.95652020719982e-08, 2.291045661727084e-09, 3.910582730697347e-09, 3.7092321113495314e-10, -5.723813601779228e-08, 1.956520207192933e-08, 4.5821158975278885e-07]
twist: 
  twist: 
    linear: 
      x: 0.0
      y: 0.0
      z: 0.0
    angular: 
      x: 0.0
      y: 0.0
      z: 0.0
  covariance: [0.0, 0.0, 0.0, 0.0, 0.0, 0.0, 0.0, 0.0, 0.0, 0.0, 0.0, 0.0, 0.0, 0.0, 0.0, 0.0, 0.0, 0.0, 0.0, 0.0, 0.0, 0.0, 0.0, 0.0, 0.0, 0.0, 0.0, 0.0, 0.0, 0.0, 0.0, 0.0, 0.0, 0.0, 0.0, 0.0]
---
header: 
  seq: 23
  stamp: 
    secs: 1674207938
    nsecs: 890588760
  frame_id: "camera_init"
child_frame_id: "body"
pose: 
  pose: 
    position: 
      x: 1.0698759888991258
      y: -0.061227963587565014
      z: -0.05295429305280149
    orientation: 
      x: -0.0005727381647932362
      y: -0.0012826756163749659
      z: -0.004228373727266742
      w: 0.9999900737356748
  covariance: [1.5074964935763682e-09, -9.360536995467005e-11, -9.773550276606532e-11, -2.2053119665786414e-10, 4.655929208310999e-09, 2.182630956942979e-09, -9.360536995563667e-11, 1.1674646436931356e-09, -3.8832362729659136e-11, -5.060664702478158e-09, -4.904348330325721e-10, 3.665871215009179e-09, -9.773550275223637e-11, -3.8832362727917514e-11, 5.214111751527675e-09, -2.1750145757087434e-09, -8.523437046189382e-09, 1.1165071095941466e-09, -2.2053119782084854e-10, -5.060664709682108e-09, -2.175014574684982e-09, 1.4539751384611677e-06, -7.676690420653363e-08, -5.7249865780261836e-08, 4.655929216828833e-09, -4.904348326115046e-10, -8.523437048076164e-09, -7.676690420661659e-08, 1.283065587065002e-06, 2.7333441432931588e-08, 2.182630957157602e-09, 3.6658712148189095e-09, 1.116507109535465e-09, -5.724986578018445e-08, 2.7333441432860156e-08, 4.705777505067373e-07]
twist: 
  twist: 
    linear: 
      x: 0.0
      y: 0.0
      z: 0.0
    angular: 
      x: 0.0
      y: 0.0
      z: 0.0
  covariance: [0.0, 0.0, 0.0, 0.0, 0.0, 0.0, 0.0, 0.0, 0.0, 0.0, 0.0, 0.0, 0.0, 0.0, 0.0, 0.0, 0.0, 0.0, 0.0, 0.0, 0.0, 0.0, 0.0, 0.0, 0.0, 0.0, 0.0, 0.0, 0.0, 0.0, 0.0, 0.0, 0.0, 0.0, 0.0, 0.0]
---
header: 
  seq: 24
  stamp: 
    secs: 1674207938
    nsecs: 991443634
  frame_id: "camera_init"
child_frame_id: "body"
pose: 
  pose: 
    position: 
      x: 1.180619893193893
      y: -0.07762632479040044
      z: -0.05861182072004795
    orientation: 
      x: -0.0005927426137053023
      y: -0.0014808149121725226
      z: -0.00448164473259571
      w: 0.999988685287929
  covariance: [1.5240845491678778e-09, -1.0599331486882127e-10, -9.563562917801371e-11, -4.752431371128126e-10, 5.066513052920629e-09, 2.4564933192147156e-09, -1.059933148622117e-10, 1.1330499414238755e-09, -3.399372430966228e-11, -4.642212713797219e-09, -4.198789343039871e-10, 3.313800168937211e-09, -9.563562921508987e-11, -3.39937242682289e-11, 4.997458417754411e-09, -2.1182750216243867e-09, -9.069240472688983e-09, 1.0342064865736127e-09, -4.752431391768152e-10, -4.642212727469837e-09, -2.1182750210860393e-09, 1.456236729677678e-06, -7.286255245552378e-08, -6.062044010636458e-08, 5.0665130672911265e-09, -4.198789358051677e-10, -9.069240472819613e-09, -7.286255245564692e-08, 1.2605599430164402e-06, 2.6329397307004598e-08, 2.456493319443812e-09, 3.3138001691644847e-09, 1.0342064865424425e-09, -6.062044010627526e-08, 2.632939730693043e-08, 4.719731018532052e-07]
twist: 
  twist: 
    linear: 
      x: 0.0
      y: 0.0
      z: 0.0
    angular: 
      x: 0.0
      y: 0.0
      z: 0.0
  covariance: [0.0, 0.0, 0.0, 0.0, 0.0, 0.0, 0.0, 0.0, 0.0, 0.0, 0.0, 0.0, 0.0, 0.0, 0.0, 0.0, 0.0, 0.0, 0.0, 0.0, 0.0, 0.0, 0.0, 0.0, 0.0, 0.0, 0.0, 0.0, 0.0, 0.0, 0.0, 0.0, 0.0, 0.0, 0.0, 0.0]
---
header: 
  seq: 25
  stamp: 
    secs: 1674207939
    nsecs:  92278719
  frame_id: "camera_init"
child_frame_id: "body"
pose: 
  pose: 
    position: 
      x: 1.292346067474366
      y: -0.07790263564747187
      z: -0.06550683615564465
    orientation: 
      x: -0.000734626895853142
      y: -0.0014719393256307552
      z: -0.004292485544239299
      w: 0.9999894340870797
  covariance: [1.5273563793407569e-09, -1.263017757874352e-10, -1.036163737679932e-10, -4.609003726429768e-10, 5.1532975163060456e-09, 1.99269028566528e-09, -1.2630177578909343e-10, 1.185341273887058e-09, 3.641185195853841e-11, -5.108449160260813e-09, -2.2441319622726323e-10, 3.768148819125482e-09, -1.0361637386513055e-10, 3.6411851967008014e-11, 5.145854572144652e-09, -6.2174662912142005e-09, -1.0119903561422685e-08, 1.0395263258186773e-09, -4.6090037292316506e-10, -5.108449166066528e-09, -6.217466291653281e-09, 1.4046776890560369e-06, -3.866260028706832e-08, -4.8131129790553215e-08, 5.153297520592557e-09, -2.2441319793529618e-10, -1.0119903557321477e-08, -3.866260028722132e-08, 1.2356701729974837e-06, 1.8615488231288932e-08, 1.9926902857378554e-09, 3.7681488191282966e-09, 1.0395263258872442e-09, -4.8131129790476214e-08, 1.8615488231228876e-08, 4.802923695707651e-07]
twist: 
  twist: 
    linear: 
      x: 0.0
      y: 0.0
      z: 0.0
    angular: 
      x: 0.0
      y: 0.0
      z: 0.0
  covariance: [0.0, 0.0, 0.0, 0.0, 0.0, 0.0, 0.0, 0.0, 0.0, 0.0, 0.0, 0.0, 0.0, 0.0, 0.0, 0.0, 0.0, 0.0, 0.0, 0.0, 0.0, 0.0, 0.0, 0.0, 0.0, 0.0, 0.0, 0.0, 0.0, 0.0, 0.0, 0.0, 0.0, 0.0, 0.0, 0.0]
---
header: 
  seq: 26
  stamp: 
    secs: 1674207939
    nsecs: 193173170
  frame_id: "camera_init"
child_frame_id: "body"
pose: 
  pose: 
    position: 
      x: 1.4137619694642565
      y: -0.08916750411246392
      z: -0.07556745977578748
    orientation: 
      x: -0.0007039430128133722
      y: -0.001796998944544457
      z: -0.004429364922016396
      w: 0.9999883279245891
  covariance: [1.5693389955949474e-09, -1.2800328972868075e-10, -1.0634102972043205e-10, -5.859765830366578e-10, 4.6775776807191875e-09, 2.9288276136413016e-09, -1.2800328976967525e-10, 1.2467479404292073e-09, -5.349874719363609e-11, -4.7818030909583786e-09, -3.1545721165445433e-10, 3.6432757489931158e-09, -1.0634102977867999e-10, -5.349874717460878e-11, 4.668857677718064e-09, -5.1619187614453e-10, -1.1577807284955826e-08, 8.393773939740428e-10, -5.859765761844918e-10, -4.781803093100505e-09, -5.161918746267784e-10, 1.423006254218413e-06, -7.10224549706234e-08, -5.3676116459151084e-08, 4.677577683192555e-09, -3.1545721145842074e-10, -1.1577807284351633e-08, -7.102245497066555e-08, 1.2928591582327676e-06, 2.8229227817254356e-08, 2.92882761061483e-09, 3.643275749476177e-09, 8.393773953548614e-10, -5.367611645907822e-08, 2.8229227817229058e-08, 4.908940203336055e-07]
twist: 
  twist: 
    linear: 
      x: 0.0
      y: 0.0
      z: 0.0
    angular: 
      x: 0.0
      y: 0.0
      z: 0.0
  covariance: [0.0, 0.0, 0.0, 0.0, 0.0, 0.0, 0.0, 0.0, 0.0, 0.0, 0.0, 0.0, 0.0, 0.0, 0.0, 0.0, 0.0, 0.0, 0.0, 0.0, 0.0, 0.0, 0.0, 0.0, 0.0, 0.0, 0.0, 0.0, 0.0, 0.0, 0.0, 0.0, 0.0, 0.0, 0.0, 0.0]
---
header: 
  seq: 27
  stamp: 
    secs: 1674207939
    nsecs: 294058800
  frame_id: "camera_init"
child_frame_id: "body"
pose: 
  pose: 
    position: 
      x: 1.5339537390477167
      y: -0.10221330275062829
      z: -0.0770285764536494
    orientation: 
      x: -0.0008394336723962554
      y: -0.0018837049496849213
      z: -0.0047938800166455586
      w: 0.9999863827678646
  covariance: [1.5263287669934435e-09, -1.248582515252676e-10, -1.3867610298420867e-10, 5.301877691042843e-11, 5.656685903959506e-09, 2.632241828013938e-09, -1.2485825152716505e-10, 1.2901548006049344e-09, -4.386626304534677e-11, -5.52026599121858e-09, -7.023379948559897e-10, 4.047949023405137e-09, -1.3867610306152702e-10, -4.386626302919646e-11, 5.0031917248390436e-09, 1.6795965734418645e-09, -1.4132611349643355e-08, 5.983984328799627e-10, 5.301877603791607e-11, -5.520265986460504e-09, 1.679596578779452e-09, 1.423931310434968e-06, -5.532604955187765e-08, -5.3515302628820925e-08, 5.656685915819967e-09, -7.023379931147611e-10, -1.4132611348335285e-08, -5.5326049551850145e-08, 1.3099735549291625e-06, 2.560298963253518e-08, 2.6322418291950425e-09, 4.0479490234821335e-09, 5.983984328820461e-10, -5.351530262875922e-08, 2.560298963249968e-08, 5.019353931469722e-07]
twist: 
  twist: 
    linear: 
      x: 0.0
      y: 0.0
      z: 0.0
    angular: 
      x: 0.0
      y: 0.0
      z: 0.0
  covariance: [0.0, 0.0, 0.0, 0.0, 0.0, 0.0, 0.0, 0.0, 0.0, 0.0, 0.0, 0.0, 0.0, 0.0, 0.0, 0.0, 0.0, 0.0, 0.0, 0.0, 0.0, 0.0, 0.0, 0.0, 0.0, 0.0, 0.0, 0.0, 0.0, 0.0, 0.0, 0.0, 0.0, 0.0, 0.0, 0.0]
---
header: 
  seq: 28
  stamp: 
    secs: 1674207939
    nsecs: 394886971
  frame_id: "camera_init"
child_frame_id: "body"
pose: 
  pose: 
    position: 
      x: 1.6532948045218874
      y: -0.1106725340371907
      z: -0.08031356496430066
    orientation: 
      x: -0.0008119501919425366
      y: -0.0021594272553442212
      z: -0.005089934223842518
      w: 0.9999843849682912
  covariance: [1.6540610629696991e-09, -1.139345616353244e-10, -1.1843438697617144e-10, -6.027074878631289e-10, 5.766064743127632e-09, 4.1934309330676906e-09, -1.1393456165067134e-10, 1.2354068290611127e-09, -2.9749044590554326e-11, -4.931497130848216e-09, -5.89083153447682e-10, 2.111509009975973e-09, -1.1843438698238044e-10, -2.9749044581249985e-11, 4.57609993312856e-09, 1.3674743018040823e-09, -1.2813792536952408e-08, 6.612526207260726e-10, -6.027074878947078e-10, -4.931497122752956e-09, 1.3674743026603375e-09, 1.4266420231930173e-06, -6.232272136647239e-08, -6.097357618995682e-08, 5.766064748726676e-09, -5.89083153369341e-10, -1.2813792535115743e-08, -6.2322721366505e-08, 1.3291197557758243e-06, 4.665717262968145e-08, 4.193430929592573e-09, 2.1115090097903153e-09, 6.612526205575377e-10, -6.097357618990586e-08, 4.665717262965889e-08, 5.159005069024005e-07]
twist: 
  twist: 
    linear: 
      x: 0.0
      y: 0.0
      z: 0.0
    angular: 
      x: 0.0
      y: 0.0
      z: 0.0
  covariance: [0.0, 0.0, 0.0, 0.0, 0.0, 0.0, 0.0, 0.0, 0.0, 0.0, 0.0, 0.0, 0.0, 0.0, 0.0, 0.0, 0.0, 0.0, 0.0, 0.0, 0.0, 0.0, 0.0, 0.0, 0.0, 0.0, 0.0, 0.0, 0.0, 0.0, 0.0, 0.0, 0.0, 0.0, 0.0, 0.0]
---
header: 
  seq: 29
  stamp: 
    secs: 1674207939
    nsecs: 495754719
  frame_id: "camera_init"
child_frame_id: "body"
pose: 
  pose: 
    position: 
      x: 1.7862576454123582
      y: -0.1222056829549301
      z: -0.08381522666350717
    orientation: 
      x: -0.0008548131820103502
      y: -0.002158880136126166
      z: -0.005730385413162562
      w: 0.9999808854243156
  covariance: [1.5273714016669721e-09, -1.4268427339292818e-10, -1.0070366942455478e-10, -4.4528275467190073e-10, 5.253484690757562e-09, 3.2312085627842563e-09, -1.4268427338591827e-10, 1.2504390942505916e-09, -3.599261991838488e-11, -4.4432539542356e-09, -5.906231610615994e-10, 2.6749394444384128e-09, -1.0070366941194094e-10, -3.599261992725875e-11, 4.808125205880989e-09, -2.2831572351328415e-09, -1.1732066867119826e-08, 9.888984077992844e-10, -4.4528275403348066e-10, -4.4432539417124125e-09, -2.283157234889658e-09, 1.401890501357746e-06, -5.414921730973265e-08, -6.047097839918411e-08, 5.253484689292622e-09, -5.90623163985496e-10, -1.173206686905526e-08, -5.4149217309820085e-08, 1.284568924028785e-06, 3.7269757704172775e-08, 3.2312085624768863e-09, 2.674939443346094e-09, 9.888984077617495e-10, -6.047097839915592e-08, 3.7269757704145226e-08, 5.144881547948179e-07]
twist: 
  twist: 
    linear: 
      x: 0.0
      y: 0.0
      z: 0.0
    angular: 
      x: 0.0
      y: 0.0
      z: 0.0
  covariance: [0.0, 0.0, 0.0, 0.0, 0.0, 0.0, 0.0, 0.0, 0.0, 0.0, 0.0, 0.0, 0.0, 0.0, 0.0, 0.0, 0.0, 0.0, 0.0, 0.0, 0.0, 0.0, 0.0, 0.0, 0.0, 0.0, 0.0, 0.0, 0.0, 0.0, 0.0, 0.0, 0.0, 0.0, 0.0, 0.0]
---
header: 
  seq: 30
  stamp: 
    secs: 1674207939
    nsecs: 596581936
  frame_id: "camera_init"
child_frame_id: "body"
pose: 
  pose: 
    position: 
      x: 1.9229561024726782
      y: -0.132184546952203
      z: -0.09714954370595101
    orientation: 
      x: -0.0011355392237460576
      y: -0.002319797792148286
      z: -0.006462437089738286
      w: 0.9999757827046294
  covariance: [1.6027371953978594e-09, -5.729801536549241e-11, -5.405107267472882e-11, 2.7021297813078547e-11, 5.167923971210196e-09, 4.909972244258934e-09, -5.7298015355257274e-11, 1.405001383725401e-09, -1.3967903981370597e-11, -4.876732571404234e-09, -4.1371172298747556e-10, 3.907453967455858e-09, -5.40510727434647e-11, -1.3967903973135306e-11, 4.355823248394787e-09, -4.034735308961548e-09, -9.808133497129634e-09, 1.9096460996078168e-10, 2.7021293542757675e-11, -4.876732577295066e-09, -4.034735308940055e-09, 1.4039136304363178e-06, -4.5412743951660547e-08, -6.878113808234947e-08, 5.167923982441964e-09, -4.137117220408821e-10, -9.808133497120608e-09, -4.541274395177766e-08, 1.2460188470217832e-06, 4.5629470538647755e-08, 4.909972244652009e-09, 3.907453967708843e-09, 1.909646099304719e-10, -6.878113808231012e-08, 4.562947053858276e-08, 5.546352212941125e-07]
twist: 
  twist: 
    linear: 
      x: 0.0
      y: 0.0
      z: 0.0
    angular: 
      x: 0.0
      y: 0.0
      z: 0.0
  covariance: [0.0, 0.0, 0.0, 0.0, 0.0, 0.0, 0.0, 0.0, 0.0, 0.0, 0.0, 0.0, 0.0, 0.0, 0.0, 0.0, 0.0, 0.0, 0.0, 0.0, 0.0, 0.0, 0.0, 0.0, 0.0, 0.0, 0.0, 0.0, 0.0, 0.0, 0.0, 0.0, 0.0, 0.0, 0.0, 0.0]
---
header: 
  seq: 31
  stamp: 
    secs: 1674207939
    nsecs: 697445869
  frame_id: "camera_init"
child_frame_id: "body"
pose: 
  pose: 
    position: 
      x: 2.071590444935819
      y: -0.14064475770547863
      z: -0.10353957664799829
    orientation: 
      x: -0.0014680652486853546
      y: -0.002516598330586586
      z: -0.007017193018523754
      w: 0.9999711348431058
  covariance: [1.6846170978852536e-09, 2.4692575791174383e-12, -1.2093136129596555e-10, -4.5890877884246575e-10, 5.029651269896407e-09, 6.35652971287032e-09, 2.46925758509837e-12, 1.3981558515663792e-09, 1.7291318402989887e-11, -4.575294955750144e-09, -7.870673244050471e-10, 3.594977062866183e-09, -1.2093136124340032e-10, 1.7291318430236267e-11, 4.993872076895278e-09, -3.3005623432601323e-09, -1.2365804863778339e-08, 9.758253202500337e-10, -4.5890878077663524e-10, -4.575294950912131e-09, -3.300562346760279e-09, 1.4099893187544813e-06, -4.014961910050754e-08, -6.408312858126428e-08, 5.029651267244242e-09, -7.870673259260955e-10, -1.236580486317e-08, -4.0149619100612645e-08, 1.2805239411687652e-06, 4.0941401127214616e-08, 6.3565297112593295e-09, 3.5949770625821006e-09, 9.758253186845545e-10, -6.408312858122279e-08, 4.0941401127180225e-08, 5.758295904763155e-07]
twist: 
  twist: 
    linear: 
      x: 0.0
      y: 0.0
      z: 0.0
    angular: 
      x: 0.0
      y: 0.0
      z: 0.0
  covariance: [0.0, 0.0, 0.0, 0.0, 0.0, 0.0, 0.0, 0.0, 0.0, 0.0, 0.0, 0.0, 0.0, 0.0, 0.0, 0.0, 0.0, 0.0, 0.0, 0.0, 0.0, 0.0, 0.0, 0.0, 0.0, 0.0, 0.0, 0.0, 0.0, 0.0, 0.0, 0.0, 0.0, 0.0, 0.0, 0.0]
---
header: 
  seq: 32
  stamp: 
    secs: 1674207939
    nsecs: 798300743
  frame_id: "camera_init"
child_frame_id: "body"
pose: 
  pose: 
    position: 
      x: 2.2219740046417416
      y: -0.15220384377901833
      z: -0.12036602576225565
    orientation: 
      x: -0.0015108793550564742
      y: -0.002454626245346767
      z: -0.007757691438958437
      w: 0.9999657545521786
  covariance: [1.8960996696907507e-09, -3.85012591716022e-11, -1.2583712607930916e-10, -3.1963048555572263e-10, 5.903849653165876e-09, 6.744081258108538e-09, -3.8501259189706e-11, 1.4389227829735995e-09, 1.16810036759142e-11, -4.750360303105846e-09, -1.6169997203823702e-10, 4.477373188690216e-09, -1.2583712611067143e-10, 1.1681003618314337e-11, 4.704149222759154e-09, -4.773450158525203e-09, -1.2198308631557233e-08, 2.8631390928683984e-10, -3.19630482919388e-10, -4.7503602996171306e-09, -4.773450161193854e-09, 1.3617077303552455e-06, -5.9416136596208424e-08, -4.1433355616351076e-08, 5.9038496500894905e-09, -1.6169997002039994e-10, -1.2198308629882032e-08, -5.941613659620698e-08, 1.2533119617785237e-06, 5.611291518214314e-08, 6.744081256104653e-09, 4.477373187510831e-09, 2.863139067832953e-10, -4.143335561632419e-08, 5.611291518212486e-08, 6.039045853957531e-07]
twist: 
  twist: 
    linear: 
      x: 0.0
      y: 0.0
      z: 0.0
    angular: 
      x: 0.0
      y: 0.0
      z: 0.0
  covariance: [0.0, 0.0, 0.0, 0.0, 0.0, 0.0, 0.0, 0.0, 0.0, 0.0, 0.0, 0.0, 0.0, 0.0, 0.0, 0.0, 0.0, 0.0, 0.0, 0.0, 0.0, 0.0, 0.0, 0.0, 0.0, 0.0, 0.0, 0.0, 0.0, 0.0, 0.0, 0.0, 0.0, 0.0, 0.0, 0.0]
---
header: 
  seq: 33
  stamp: 
    secs: 1674207939
    nsecs: 899191380
  frame_id: "camera_init"
child_frame_id: "body"
pose: 
  pose: 
    position: 
      x: 2.371007859470027
      y: -0.1543797893535911
      z: -0.1407165739384024
    orientation: 
      x: -0.001997501354530752
      y: -0.0025552385912034872
      z: -0.007975749253817456
      w: 0.9999629333969939
  covariance: [1.824790994781629e-09, -6.173120171101993e-11, -1.0974516148778192e-10, -5.118734342453466e-10, 6.465503414346732e-09, 6.610736430386665e-09, -6.173120173409957e-11, 1.4455347041506409e-09, 1.976165575337622e-12, -4.665334968020668e-09, -2.911176245883535e-10, 2.8349225379141827e-09, -1.0974516153667956e-10, 1.9761655951835154e-12, 4.816604003156975e-09, -3.243571673949422e-09, -1.0097363733562487e-08, 4.55022570301553e-10, -5.118734317365627e-10, -4.665334971356882e-09, -3.2435716749177504e-09, 1.3493024085014918e-06, -4.1756846429224224e-08, -4.510742000909909e-08, 6.465503418746672e-09, -2.9111762487813344e-10, -1.0097363734573552e-08, -4.175684642915948e-08, 1.2418639332162696e-06, 5.095790066520757e-08, 6.6107364280474545e-09, 2.8349225382828865e-09, 4.5502257023204714e-10, -4.510742000905052e-08, 5.09579006651999e-08, 6.150807317001396e-07]
twist: 
  twist: 
    linear: 
      x: 0.0
      y: 0.0
      z: 0.0
    angular: 
      x: 0.0
      y: 0.0
      z: 0.0
  covariance: [0.0, 0.0, 0.0, 0.0, 0.0, 0.0, 0.0, 0.0, 0.0, 0.0, 0.0, 0.0, 0.0, 0.0, 0.0, 0.0, 0.0, 0.0, 0.0, 0.0, 0.0, 0.0, 0.0, 0.0, 0.0, 0.0, 0.0, 0.0, 0.0, 0.0, 0.0, 0.0, 0.0, 0.0, 0.0, 0.0]
---
header: 
  seq: 34
  stamp: 
    secs: 1674207940
    nsecs:     41485
  frame_id: "camera_init"
child_frame_id: "body"
pose: 
  pose: 
    position: 
      x: 2.5300002598654068
      y: -0.1626999966317367
      z: -0.15678072247754382
    orientation: 
      x: -0.002274728862952354
      y: -0.0023089915544098625
      z: -0.008000522127061031
      w: 0.9999627422120767
  covariance: [2.0826550527188426e-09, -9.627609603512917e-11, -1.8625522618847355e-10, -4.634424536279217e-10, 7.76899274916128e-09, 9.172717063962953e-09, -9.62760960898751e-11, 1.52684887401383e-09, 2.048575113045966e-11, -4.421999848959424e-09, -1.1715945908172063e-09, 4.92872220056833e-09, -1.8625522620868408e-10, 2.0485751151337053e-11, 4.436144241642027e-09, -9.40172015116314e-10, -1.0897488526123975e-08, 1.0380047690780322e-09, -4.6344246068928785e-10, -4.421999857142035e-09, -9.401720105576204e-10, 1.3075336314287443e-06, -3.96109712989713e-08, -4.495506978694084e-08, 7.768992754548976e-09, -1.1715945908509691e-09, -1.0897488526875902e-08, -3.9610971299038375e-08, 1.224009501407943e-06, 5.311651661661072e-08, 9.17271706217868e-09, 4.928722204810728e-09, 1.0380047699693702e-09, -4.4955069786832986e-08, 5.3116516616612903e-08, 6.619663962334381e-07]
twist: 
  twist: 
    linear: 
      x: 0.0
      y: 0.0
      z: 0.0
    angular: 
      x: 0.0
      y: 0.0
      z: 0.0
  covariance: [0.0, 0.0, 0.0, 0.0, 0.0, 0.0, 0.0, 0.0, 0.0, 0.0, 0.0, 0.0, 0.0, 0.0, 0.0, 0.0, 0.0, 0.0, 0.0, 0.0, 0.0, 0.0, 0.0, 0.0, 0.0, 0.0, 0.0, 0.0, 0.0, 0.0, 0.0, 0.0, 0.0, 0.0, 0.0, 0.0]
---
header: 
  seq: 35
  stamp: 
    secs: 1674207940
    nsecs: 100898981
  frame_id: "camera_init"
child_frame_id: "body"
pose: 
  pose: 
    position: 
      x: 2.685064202141144
      y: -0.16891150139441385
      z: -0.16526825668528533
    orientation: 
      x: -0.00213685752274068
      y: -0.0027085661170440814
      z: -0.007470639323622825
      w: 0.999966142955657
  covariance: [2.206159944265638e-09, -1.6062526517893216e-10, -1.0130854246975035e-10, -1.6271079956532883e-09, 7.401193579407973e-09, 9.097455327841799e-09, -1.6062526520400956e-10, 1.610091449226809e-09, 2.8894962648594407e-11, -4.725362012352773e-09, -7.533396615924201e-10, 2.0832985473741424e-09, -1.0130854243061254e-10, 2.8894962626414835e-11, 4.290359378775842e-09, -2.976470339760506e-09, -1.0479136333023197e-08, 1.5572663727708949e-09, -1.6271079925390502e-09, -4.725362007753479e-09, -2.9764703425710995e-09, 1.3116643393968495e-06, -3.976464643522378e-08, -5.8021198181182886e-08, 7.401193574896794e-09, -7.533396601154661e-10, -1.0479136331247195e-08, -3.976464643524731e-08, 1.1798122195659991e-06, 5.285229659980221e-08, 9.097455329056749e-09, 2.0832985479476586e-09, 1.5572663704223875e-09, -5.802119818109082e-08, 5.2852296599762455e-08, 6.751654540352802e-07]
twist: 
  twist: 
    linear: 
      x: 0.0
      y: 0.0
      z: 0.0
    angular: 
      x: 0.0
      y: 0.0
      z: 0.0
  covariance: [0.0, 0.0, 0.0, 0.0, 0.0, 0.0, 0.0, 0.0, 0.0, 0.0, 0.0, 0.0, 0.0, 0.0, 0.0, 0.0, 0.0, 0.0, 0.0, 0.0, 0.0, 0.0, 0.0, 0.0, 0.0, 0.0, 0.0, 0.0, 0.0, 0.0, 0.0, 0.0, 0.0, 0.0, 0.0, 0.0]
---
header: 
  seq: 36
  stamp: 
    secs: 1674207940
    nsecs: 201739550
  frame_id: "camera_init"
child_frame_id: "body"
pose: 
  pose: 
    position: 
      x: 2.8567863163489386
      y: -0.1745543603549852
      z: -0.1895347874480681
    orientation: 
      x: -0.0026113633949079703
      y: -0.0026312009238745296
      z: -0.007317701433117307
      w: 0.9999663538382948
  covariance: [1.8909477836150973e-09, -1.838699548879166e-10, -1.0837628831320585e-10, -8.503480865162271e-10, 6.398178192302394e-09, 8.102593807044511e-09, -1.8386995490738233e-10, 1.7704453883242156e-09, -4.4537577031335624e-11, -5.0731806964153465e-09, -3.912709684447042e-10, 4.98935891925728e-09, -1.0837628836778807e-10, -4.4537577041767386e-11, 4.6021252960034825e-09, -1.5849165520072442e-09, -1.1746691816848349e-08, 5.949476252165974e-10, -8.503480901464292e-10, -5.073180696843773e-09, -1.5849165522411769e-09, 1.3145089674138324e-06, -4.342449917482335e-08, -5.8580316583926806e-08, 6.3981781963049124e-09, -3.912709670827708e-10, -1.1746691813313565e-08, -4.342449917482861e-08, 1.160493653308482e-06, 5.072600912443911e-08, 8.102593809886803e-09, 4.989358922837814e-09, 5.94947625569351e-10, -5.8580316583836875e-08, 5.0726009124353714e-08, 6.777510071340345e-07]
twist: 
  twist: 
    linear: 
      x: 0.0
      y: 0.0
      z: 0.0
    angular: 
      x: 0.0
      y: 0.0
      z: 0.0
  covariance: [0.0, 0.0, 0.0, 0.0, 0.0, 0.0, 0.0, 0.0, 0.0, 0.0, 0.0, 0.0, 0.0, 0.0, 0.0, 0.0, 0.0, 0.0, 0.0, 0.0, 0.0, 0.0, 0.0, 0.0, 0.0, 0.0, 0.0, 0.0, 0.0, 0.0, 0.0, 0.0, 0.0, 0.0, 0.0, 0.0]
---
header: 
  seq: 37
  stamp: 
    secs: 1674207940
    nsecs: 302635670
  frame_id: "camera_init"
child_frame_id: "body"
pose: 
  pose: 
    position: 
      x: 3.037159973789333
      y: -0.18795794096706367
      z: -0.20199725386474457
    orientation: 
      x: -0.0028635154455688436
      y: -0.0029990997177310537
      z: -0.007687855918756779
      w: 0.999961850548084
  covariance: [1.9868161215993997e-09, -2.5450960228117425e-10, -1.8165243067476794e-10, -1.0484258239164019e-09, 7.150457928360368e-09, 9.790461088534445e-09, -2.5450960228220947e-10, 1.8207250079203727e-09, 2.5763723193033524e-11, -4.79524831427239e-09, -1.1509299103815127e-09, 4.029575294092764e-09, -1.8165243070737959e-10, 2.5763723200733293e-11, 4.6084982729344765e-09, 2.1569608866902092e-09, -1.008947460325969e-08, 4.0081527633975736e-10, -1.0484258258384538e-09, -4.795248318615968e-09, 2.1569608851285464e-09, 1.308409229069099e-06, -6.768297601285599e-08, -7.669320188159032e-08, 7.15045793020491e-09, -1.15092991053166e-09, -1.0089474600320643e-08, -6.76829760129359e-08, 1.1518125064260686e-06, 5.441412433519442e-08, 9.790461089228964e-09, 4.029575293822232e-09, 4.008152760629239e-10, -7.669320188151732e-08, 5.441412433511225e-08, 7.091837327077377e-07]
twist: 
  twist: 
    linear: 
      x: 0.0
      y: 0.0
      z: 0.0
    angular: 
      x: 0.0
      y: 0.0
      z: 0.0
  covariance: [0.0, 0.0, 0.0, 0.0, 0.0, 0.0, 0.0, 0.0, 0.0, 0.0, 0.0, 0.0, 0.0, 0.0, 0.0, 0.0, 0.0, 0.0, 0.0, 0.0, 0.0, 0.0, 0.0, 0.0, 0.0, 0.0, 0.0, 0.0, 0.0, 0.0, 0.0, 0.0, 0.0, 0.0, 0.0, 0.0]
---
header: 
  seq: 38
  stamp: 
    secs: 1674207940
    nsecs: 403465271
  frame_id: "camera_init"
child_frame_id: "body"
pose: 
  pose: 
    position: 
      x: 3.2027163113435155
      y: -0.19550782381586612
      z: -0.21221142572306623
    orientation: 
      x: -0.0028479455092902707
      y: -0.0033274071207663493
      z: -0.008571917652320047
      w: 0.9999536688247064
